[
        {
            "no": "001",
            "title": "勝博殿-日式炸豬排",
            "type": "日本料理",
            "address": "2F 饗悠活 22002",
            "telphone": "03-263-0613",
            "hours": "11:00 - 22:00",
            "figure": "fig/AiCity-910-勝博殿-02.jpg",
            "link": "http://www.saboten.com.tw/",
            "category": "A8-GlobalMall"
        },
        {
            "no": "002",
            "title": "洋朵義式廚坊",
            "type": "義大利餐廳",
            "address": "2F 饗悠活 22003",
            "telphone": "03-328-1956",
            "hours": "11:00 - 21:50",
            "figure": "fig/AiCity-910-洋朵義式廚坊-02.jpeg",
            "link": "https://www.yentlpasta.com.tw/",
            "category": "A8-GlobalMall"
        },
        {
            "no": "003",
            "title": "朱記 餡餅粥",
            "type": "麵食餐館",
            "address": "2F 饗悠活 22012",
            "telphone": "03-318-1109",
            "hours": "11:00 - 22:00",
            "figure": "fig/AiCity-910-朱記-02.png",
            "link": "https://www.zhuji.com.tw/#2",
            "category": "A8-GlobalMall"
        },
        {
            "no": "004",
            "title": "瓦城泰國料理-A8店",
            "type": "泰式餐廳",
            "address": "2F 饗悠活 22018",
            "telphone": "03-318-6598",
            "hours": "11:00 - 21:00",
            "figure": "fig/AiCity-910-瓦城泰國料理-02.png",
            "link": "https://www.thaitown.com.tw/",
            "category": "A8-GlobalMall"
        },
        {
            "no": "005",
            "title": "阿基師藝文茶樓-桃園福容飯店",
            "type": "中式料理",
            "address": "330桃園市桃園區大興西路一段200號",
            "telphone": "03-326-5800",
            "hours": "06:30 - 10:00, 11:30 - 14:00, 17:30 - 21:00",
            "figure": "fig/AiCity-910-阿基師藝文茶樓-02.jpeg",
            "link": "https://www.fullon-hotels.com.tw/ty/",
            "category": "A8-GlobalMall"
        },
        {
            "no": "006",
            "title": "華漾點心",
            "type": "點心冰品",
            "address": "桃園市龜山區復興一路8號2樓",
            "telphone": "03-328-8718",
            "hours": "週一至週五: 11:00-14:30(最後點餐14:00), 17:30-21:30(最後點餐21:00)\r\n週六及週日: 11:00-15:30(最後點餐15:00), 17:30-21:30(最後點餐21:00)",
            "figure": "fig/AiCity-910-華漾.jpeg",
            "link": "https://www.hwayoung.com/tw/stores.php",
            "category": "A8-GlobalMall"
        },
        {
            "no": "007",
            "title": "漢來海港餐廳",
            "type": "無限自助餐",
            "address": "338桃園市蘆竹區南崁路一段112號",
            "telphone": "008-019-966",
            "hours": "週一至週五 11:00~22:00 週六至週日(或國定假日) 10:30~22:00 ",
            "figure": "fig/AiCity-910-漢來.png",
            "link": "http://www.hilai-foods.com/zh_TW/brand/harbour/Tao-Yuan-Dian",
            "category": "台茂購物中心"
        },
        {
            "no": "008",
            "title": "Haidilao海底撈",
            "type": "火鍋燒烤",
            "address": "桃園市蘆竹區南崁路一段112號 3F",
            "telphone": "03-322-1705",
            "hours": "上午11點至隔日凌晨3點",
            "figure": "fig/AiCity-910-海底撈.png",
            "link": "https://www.facebook.com/HaidilaoTaiwan/posts/2012123942207974/",
            "category": "台茂購物中心"
        },
        {
            "no": "009",
            "title": "漢來上海湯包",
            "type": "麵食餐館",
            "address": "桃園市蘆竹區南崁路一段112號 5F",
            "telphone": "03-311-2022",
            "hours": "平日11:30 ~ 14:30, 17:00 ~ 21:00; \r\n假日11:00 ~ 14:30, 17:00 ~ 21:00",
            "figure": "fig/AiCity-910-和來上海湯包.jpg",
            "link": "http://www.hilai-foods.com/zh_TW/brand/Hongtao-Shanghai-buns/taoyuan-dian",
            "category": "台茂購物中心"
        },
        {
            "no": "010",
            "title": "上菜",
            "type": "麵食餐館",
            "address": "桃園市蘆竹區南崁路一段112號 6F",
            "telphone": "03-312-5222",
            "hours": "平日11:30 ~ 14:30, 17:00 ~ 21:00; \r\n假日11:00 ~ 14:30, 17:00 ~ 21:00",
            "figure": "fig/AiCity-910-上菜.jpg",
            "link": "https://www.facebook.com/HilaiRoastDuck/",
            "category": "台茂購物中心"
        },
        {
            "no": "011",
            "title": "SYABU-YO涮乃葉",
            "type": "火鍋燒烤",
            "address": "桃園市蘆竹區南崁路一段112號 6F",
            "telphone": "03-222-5025",
            "hours": "週一至週五11:00~22:00 週六至周日、例假日10:30~22:00",
            "figure": "fig/AiCity-910-涮乃葉.jpeg",
            "link": "https://www.syabuyo.com.tw/store_detail.php?id=6&area=",
            "category": "台茂購物中心"
        },
        {
            "no": "012",
            "title": "原燒O-NiKU",
            "type": "火鍋燒烤",
            "address": "桃園市蘆竹區南崁路一段112號 6F",
            "telphone": "03-222-1668",
            "hours": "週一至週五11:00~22:00 週六至周日、例假日10:30~22:00",
            "figure": "fig/AiCity-910-原燒.jpeg",
            "link": "https://www.yakiyan.com/store_detail.html?sno=10222",
            "category": "台茂購物中心"
        },
        {
            "no": "013",
            "title": "NINI 尼尼義大利餐廳",
            "type": "義大利餐廳",
            "address": "桃園市蘆竹區南崁路一段112號 6F",
            "telphone": "03-222-3272",
            "hours": "週一至週五11:00~22:00 週六至周日、例假日10:30~22:00",
            "figure": "fig/AiCity-910-Nini.jpeg",
            "link": "https://www.facebook.com/ninitaimall/",
            "category": "台茂購物中心"
        },
        {
            "no": "014",
            "title": "點心願 林口店",
            "type": "點心冰品",
            "address": "新北市林口區八德路366號",
            "telphone": "02-2608-0003",
            "hours": "週一至週日 11:00~14:00 17:00~22:00 不定期公休",
            "figure": "fig/AiCity-910-點心願.jpg",
            "link": "https://www.gomaji.com/store/141212?pid=250535",
            "category": "林口美食"
        },
        {
            "no": "015",
            "title": "呷冰食堂",
            "type": "點心冰品",
            "address": "新北市林口區中正路261號",
            "telphone": "0908-67- 889",
            "hours": "12:00 - 21:00 週日公休",
            "figure": "fig/AiCity-910-呷冰食堂.jpg",
            "link": "https://almablog.com.tw/blog/post/136256",
            "category": "林口美食"
        },
        {
            "no": "016",
            "title": "Pappi’s restaurant 義式餐廳",
            "type": "義大利餐廳",
            "address": "新北市林口區仁愛二路63號",
            "telphone": "02-2608-8167",
            "hours": "週二至週日 11:00~14:00 17:00~22:00 每週一公休",
            "figure": "fig/AiCity-910-Pappi.jpg",
            "link": "https://www.gomaji.com/store/90654?pid=243551",
            "category": "林口美食"
        },
        {
            "no": "017",
            "title": "蒸翻天",
            "type": "中式料理",
            "address": "新北市林口區仁愛路二段155號",
            "telphone": "02-2601-1151",
            "hours": "週一至週日11:00~14:00 17:00~22:00",
            "figure": "fig/AiCity-910-蒸翻天.jpg",
            "link": "https://www.facebook.com/gfood51/",
            "category": "林口美食"
        },
        {
            "no": "018",
            "title": "Freaks Café & Bistro 癮客餐酒館",
            "type": "點心冰品",
            "address": "新北市林口區仁愛路二段235-5號",
            "telphone": "02-2600-8928",
            "hours": "週一至週日11:00~15:00 17:00~21:00",
            "figure": "fig/AiCity-910-癮客.jpg",
            "link": "https://blog.xuite.net/blueshk/happy/470112542",
            "category": "林口美食"
        },
        {
            "no": "019",
            "title": "鹿野桂花雞",
            "type": "中式料理",
            "address": "新北市林口區文化一路二段190號(近民視電視公司、林口夜市)",
            "telphone": "02-2602-0065",
            "hours": "週一至週五 16:30~23:30 週六至週日 11:30~15:00 16:30~23:30 每週三公休",
            "figure": "fig/AiCity-910-鹿野桂花雞.jpg",
            "link": "https://www.gomaji.com/store/58954?ch=7",
            "category": "林口美食"
        },
        {
            "no": "020",
            "title": "Bravo Burger 發福廚房 林口店",
            "type": "點心冰品",
            "address": "新北市林口區文化三路一段402巷2號(昕境廣場內)",
            "telphone": "02-2609-4188",
            "hours": "週日至週四 11:30~21:00 週五至週六 11:30~21:30",
            "figure": "fig/AiCity-910-發福.jpg",
            "link": "https://www.gomaji.com/store/73?ch=7#51756",
            "category": "林口美食"
        },
        {
            "no": "021",
            "title": "美麗蔬．蔬食料理Meili Green",
            "type": "中式料理",
            "address": "新北市林口區文化三路一段484號(近三井Outlet、國賓影城)",
            "telphone": "02-2600-5352",
            "hours": "週一至週日 11:30~20:30，不定期公休請參考店家FB公告",
            "figure": "fig/AiCity-910-美麗蔬.jpg",
            "link": "https://www.gomaji.com/store/113538?ch=7",
            "category": "林口美食"
        },
        {
            "no": "022",
            "title": "雲豪斯WiN HOUSE無國界料理",
            "type": "中式料理",
            "address": "新北市林口區忠孝一路76號",
            "telphone": "02-2608-1977",
            "hours": "週一至週日 11:00~21:00",
            "figure": "fig/AiCity-910-雲豪斯.jpg",
            "link": "https://www.gomaji.com/store/111390",
            "category": "林口美食"
        },
        {
            "no": "023",
            "title": "那間賣冰的咖啡店",
            "type": "點心冰品",
            "address": "新北市林口區林口路10號",
            "telphone": "0988-867-455",
            "hours": "週一：12:00–21:00\r\n週二~週四：11:30–21:00\r\n周五~週六：11:30–21:30\r\n週日：11:30–21:00",
            "figure": "fig/AiCity-910-賣冰.jpg",
            "link": "https://www.viviyu.com/archives/32125",
            "category": "林口美食"
        },
        {
            "no": "024",
            "title": "老占元拉麵大王",
            "type": "麵食餐館",
            "address": "新北市林口區林口路120號",
            "telphone": "02-2602-2859",
            "hours": "週一至週六10:00~20:00 週日公休",
            "figure": "fig/AiCity-910-老占元.jpg",
            "link": "https://julialkpkpk.pixnet.net/blog/post/454296125",
            "category": "林口美食"
        },
        {
            "no": "025",
            "title": "想林口",
            "type": "中式料理",
            "address": "新北市林口區文化一路一段250號",
            "telphone": "02-2602-6522",
            "hours": "平日 11：00 ～ 21：30，假日 10：00 ～ 21：30",
            "figure": "fig/AiCity-910-想林口.jpg",
            "link": "https://www.facebook.com/thecafeby2/",
            "category": "林口區"
        },
        {
            "no": "026",
            "title": "好日子 海鮮餐廳",
            "type": "中式料理",
            "address": "新北市林口區文化一路二段131號",
            "telphone": "02-8601-8808",
            "hours": "11:00 - 14:00 、17:00 - 22:00",
            "figure": "fig/AiCity-910-好日子.png",
            "link": "https://www.facebook.com/goodday86018808",
            "category": "林口區"
        },
        {
            "no": "027",
            "title": "牛 かつもと村-三井店",
            "type": "日本料理",
            "address": "新北市林口區文化三路一段356號",
            "telphone": "02-2600-0167",
            "hours": "週一至週五11:00~21:30 週六至週日10:30~22:00",
            "figure": "fig/AiCity-910-日本牛排.png",
            "link": "https://www.gyukatsu-motomura.com/zh/",
            "category": "林口區"
        },
        {
            "no": "028",
            "title": "鶴橋風月-三井店",
            "type": "日本料理",
            "address": "新北市林口區文化三路一段356號1F",
            "telphone": "02-2600-6048",
            "hours": "週一至週日11:00~21:00",
            "figure": "fig/AiCity-910-鶴橋風月.jpg",
            "link": "https://www.facebook.com/TsuruhashiFugetsuTaiwan/",
            "category": "林口區"
        },
        {
            "no": "029",
            "title": "屯京拉麵-三井店",
            "type": "麵食餐館",
            "address": "新北市林口區文化三路一段356號2F",
            "telphone": "02-2608-7070",
            "hours": "週日至週四11:00~21:30 週五至週六11:00~22:00",
            "figure": "fig/AiCity-910-屯京拉麵.jpeg",
            "link": "https://foodexgroup.com/",
            "category": "林口區"
        },
        {
            "no": "030",
            "title": "金子半之助-三井店",
            "type": "麵食餐館",
            "address": "新北市林口區文化三路一段356號2F",
            "telphone": "02-2606-9138",
            "hours": "週一至週五11:00~21:30 週六至週日10:30~22:00",
            "figure": "fig/AiCity-910-金子半之助.png",
            "link": "https://www.tendon.kingoshou.com/",
            "category": "林口區"
        },
        {
            "no": "031",
            "title": "PAUL 保羅麵包法式烘焙Café-三井店",
            "type": "點心冰品",
            "address": "新北市林口區文化三路一段356號2F",
            "telphone": "02-2600-3323",
            "hours": "週日至週五11:00~21:00 週六10:30~22:00",
            "figure": "fig/AiCity-910-Paul.png",
            "link": "https://www.facebook.com/paul1889.taiwan/",
            "category": "林口區"
        },
        {
            "no": "032",
            "title": "J.S. Foodies Tokyo-三井店",
            "type": "日本料理",
            "address": "新北市林口區文化三路一段356號2F",
            "telphone": "02-2608-0922",
            "hours": "週日至週五11:00~21:00 週六10:30~22:00",
            "figure": "fig/AiCity-910-JSFood.png",
            "link": "https://www.facebook.com/jsfoodiestw/",
            "category": "林口區"
        },
        {
            "no": "033",
            "title": "Kua `Aina 夏威夷漢堡-三井店",
            "type": "麵食餐館",
            "address": "新北市林口區文化三路一段356號2F",
            "telphone": "02-2606-8663",
            "hours": "週一至週五11:00~21:30 週六至週日10:30~22:00",
            "figure": "fig/AiCity-910-Kuaaina.jpeg",
            "link": "http://www.kua-aina.tw/",
            "category": "林口區"
        },
        {
            "no": "034",
            "title": "瓦城泰國料理-三井店",
            "type": "泰式餐廳",
            "address": "新北市林口區文化三路一段356號2樓",
            "telphone": "02-2606-9166",
            "hours": "11:00 - 15:00, 17:00 - 21:30",
            "figure": "fig/AiCity-910-瓦城泰國料理-02.png",
            "link": "https://www.thaitown.com.tw/",
            "category": "林口區"
        },
        {
            "no": "035",
            "title": "欣葉小聚-三井店",
            "type": "中式料理",
            "address": "新北市林口區文化三路一段356號2樓",
            "telphone": "02-2608-4988",
            "hours": "11:00 - 15:00, 17:00 - 21:30",
            "figure": "fig/AiCity-910-欣葉小聚-02.png",
            "link": "https://www.shinyeh.com.tw/content/zh/brand/Index.aspx?BrandId=3",
            "category": "林口區"
        },
        {
            "no": "036",
            "title": "點水樓-三井店",
            "type": "中式料理",
            "address": "新北市林口區文化三路一段356號2樓",
            "telphone": "02-2608-6969",
            "hours": "11:00 - 22:00",
            "figure": "fig/AiCity-910-點水樓-02.jpeg",
            "link": "http://www.dianshuilou.com.tw/Intro_7_a.html",
            "category": "林口區"
        },
        {
            "no": "037",
            "title": "くら寿司-三井店",
            "type": "日本料理",
            "address": "新北市林口區文化三路一段356號B1",
            "hours": "週一至週五11:00~21:30 週六至週日 10:30~21:30",
            "figure": "fig/AiCity-910-寿司.png",
            "link": "https://kurasushi.tw/shops",
            "category": "林口區"
        },
        {
            "no": "038",
            "title": "法國的秘密甜點-三井店",
            "type": "點心冰品",
            "address": "新北市林口區文化三路一段356號B1",
            "telphone": "02-2609-6399",
            "hours": "週一至週日11:00~21:00",
            "figure": "fig/AiCity-910-法國秘密甜點.jpeg",
            "link": "https://shop.thesecretcake.com.tw/",
            "category": "林口區"
        },
        {
            "no": "039",
            "title": "Japoli -三井店",
            "type": "義大利餐廳",
            "address": "新北市林口區文化三路一段356號戶外區2F",
            "telphone": "02-2600-9845",
            "hours": "週一至週四 11:00~21:30 週五 11:00~22:00 週六至週日 10:30~22:00",
            "figure": "fig/AiCity-910-Japoli.png",
            "link": "https://www.facebook.com/japoli2.kingsknow/menu/?p_ref=pa",
            "category": "林口區"
        },
        {
            "no": "040",
            "title": "築地樂樂町",
            "type": "日本料理",
            "address": "新北市林口區文化三路二段67號",
            "telphone": "02-2608-9487",
            "hours": "11:00 - 14:00, 17:30 - 21:00",
            "figure": "fig/AiCity-910-築地樂樂町-02.jpeg",
            "link": "https://www.facebook.com/LakuLakuMachi/",
            "category": "林口區"
        },
        {
            "no": "041",
            "title": "河馬水產",
            "type": "中式料理",
            "address": "桃園市中壢區高鐵北路二段2號",
            "telphone": "03-287-3600",
            "hours": "11:00&nbsp; - 21:30",
            "figure": "fig/AiCity-910-河馬水產-02.jpeg",
            "link": "https://www.facebook.com/homaseafood",
            "category": "桃園區"
        },
        {
            "no": "042",
            "title": "村民食堂",
            "type": "中式料理",
            "address": "桃園市桃園區中正路1078號",
            "telphone": "03-316-3838",
            "hours": "11:00 - 21:00",
            "figure": "fig/AiCity-910-村民食堂-02.jpeg",
            "link": "http://villager.com.tw/",
            "category": "桃園區"
        },
        {
            "no": "043",
            "title": "圓明園-花園海鮮會館",
            "type": "中式料理",
            "address": "新北市新莊區中原路399號",
            "telphone": "02-8992-5566",
            "hours": "11:30 - 14:00, 17:30 - 21:00",
            "figure": "fig/AiCity-910-圓明園-02.jpeg",
            "link": "https://www.facebook.com/%E5%9C%93%E6%98%8E%E5%9C%92%E8%8A%B1%E5%9C%92%E6%B5%B7%E9%AE%AE%E6%9C%83%E9%A4%A8%E5%8E%9F%E5%96%9C%E5%B8%82%E5%A4%9A%E9%A4%90%E5%BB%B3-106254614063995/",
            "category": "新莊區"
        },
        {
            "no": "044",
            "title": "海苑日式料理",
            "type": "日本料理",
            "address": "桃園市龜山區文化一路10巷42弄41號",
            "telphone": "03-327-2225",
            "hours": "上午11:30-下午2:00  下午5:30-下午10:00",
            "figure": "fig/AiCity-910-海苑日式.jpg",
            "link": "https://www.jp-cuisines.com/?gclid=Cj0KCQiA1pyCBhCtARIsAHaY_5f_UwJ2GtVsgF4D5ybCw0XjnjZ9siyIi9D_n6gWI94EarJi4tqHChoaAhNKEALw_wcB",
            "category": "龜山美食"
        },
        {
            "no": "045",
            "title": "吳氏湯包",
            "type": "點心冰品",
            "address": "桃園市龜山區文化七路93號",
            "telphone": "03-3278-975",
            "hours": "04:00 - 13:00, 週一公休",
            "figure": "fig/AiCity-910-吳氏湯包.jpg",
            "link": "https://www.walkerland.com.tw/article/view/216779",
            "category": "龜山美食"
        },
        {
            "no": "046",
            "title": "六石蒔鍋",
            "type": "火鍋燒烤",
            "address": "桃園市龜山區文化二路33-1號1樓",
            "telphone": "03-397-1680",
            "hours": "11:30 - 14:30 、 17:00 - 22:30",
            "figure": "fig/AiCity-910-六石.jpg",
            "link": "https://www.walkerland.com.tw/article/view/236744",
            "category": "龜山美食"
        },
        {
            "no": "047",
            "title": "記得吃早餐",
            "type": "點心冰品",
            "address": "桃園市龜山區文化二路34巷14弄21號",
            "telphone": "03-327-2811",
            "hours": "週一～五：17:00 - 20:30, 週六日：11:00 - 14:00 、 17:00 - 20:30",
            "figure": "fig/AiCity-910-記得吃早餐.jpg",
            "link": "https://www.walkerland.com.tw/article/view/241108",
            "category": "龜山美食"
        },
        {
            "no": "048",
            "title": "家芬火鍋",
            "type": "火鍋燒烤",
            "address": "桃園市龜山區文化三路551-19號",
            "telphone": "03-3973-909",
            "hours": "週一～六：12:00 - 22:00, 週日 17:00 - 22:00",
            "figure": "fig/AiCity-910-加芬火鍋.png",
            "link": "https://www.walkerland.com.tw/article/view/252930",
            "category": "龜山美食"
        },
        {
            "no": "049",
            "title": "一將壽司",
            "type": "日本料理",
            "address": "桃園市龜山區文興路222號1樓",
            "telphone": "03-3280-899",
            "hours": "\r\n11:30 - 14:30 、 17:30 - 21:30 週三公休",
            "figure": "fig/AiCity-910-一將壽司.jpg",
            "link": "https://www.walkerland.com.tw/article/view/257524",
            "category": "龜山美食"
        },
        {
            "no": "050",
            "title": "蠢咖啡 Dumb Coffee",
            "type": "點心冰品",
            "address": "桃園市龜山區振興路642號",
            "telphone": "0903--871-155",
            "hours": "09:00 - 20:00",
            "figure": "fig/AiCity-910-蠢咖啡.jpg",
            "link": "https://www.walkerland.com.tw/article/view/267419",
            "category": "龜山美食"
        },
        {
            "no": "051",
            "title": "享時光-林口站",
            "type": "點心冰品",
            "address": "桃園市龜山區復興一路212巷5號2樓",
            "telphone": "03 -397-1171",
            "hours": "週一~五  :10:30~15:30(最後點餐14:30), \r\n                  16:30~21:15(最後點餐20:30); \r\n週 六• 日 :10:30~21:15 (最後點餐20:30)",
            "figure": "fig/AiCity-910-享時光.jpg",
            "link": "https://www.walkerland.com.tw/article/view/250686",
            "category": "龜山美食"
        },
        {
            "no": "052",
            "title": "梅菊手作魯肉飯",
            "type": "中式料理",
            "address": "桃園市龜山區復興一路356號",
            "telphone": "03-397 4858",
            "hours": "週四～週六：12:00 - 14:00 、 17:00 - 22:00",
            "figure": "fig/AiCity-910-梅菊滷肉飯.jpg",
            "link": "https://www.walkerland.com.tw/article/view/270864",
            "category": "龜山美食"
        },
        {
            "no": "053",
            "title": "懷舊中卷麵線、魷魚翅麵線",
            "type": "點心冰品",
            "address": "桃園市龜山區復興北路6巷51-1號",
            "telphone": "0989-838-605",
            "hours": "平日11:30~18:00或售完, \r\n週六11:00~14:00或售完,\r\n週日公休",
            "figure": "fig/AiCity-910-懷舊中卷.jpg",
            "link": "https://www.walkerland.com.tw/article/view/259968",
            "category": "龜山美食"
        },
        {
            "no": "054",
            "title": "水道泰國蝦吃到飽",
            "type": "點心冰品",
            "address": "桃園市龜山區廣福路315號",
            "telphone": "03-377-2658‬",
            "hours": "週一～五：17:30 - 22:30, 週六日：11:30 - 16:00 、 17:30 - 22:00",
            "figure": "fig/AiCity-910-泰國蝦.jpg",
            "link": "https://www.walkerland.com.tw/article/view/240610",
            "category": "龜山美食"
        },
        {
            "no": "055",
            "title": "厚切牛排",
            "type": "火鍋燒烤",
            "address": "桃園市龜山區文化一路26號",
            "telphone": "03-397-8729",
            "hours": "11:00 - 22:00",
            "figure": "fig/AiCity-910-厚切牛排-02.jpeg",
            "link": "http://www.thicklycut.com.tw/%E5%88%86%E5%BA%97%E4%BB%8B%E7%B4%B9/store9.html",
            "category": "龜山區-文化路"
        },
        {
            "no": "056",
            "title": "六扇門-時尚湯鍋",
            "type": "火鍋燒烤",
            "address": "桃園市龜山區文化一路36號",
            "telphone": "03-318-6666",
            "hours": "11:30 - 23:00",
            "figure": "fig/AiCity-910-六扇門-02.jpeg",
            "link": "https://hot-pot-restaurant-2357.business.site/",
            "category": "龜山區-文化路"
        },
        {
            "no": "057",
            "title": "來碗拉麵",
            "type": "麵食餐館",
            "address": "桃園市龜山區文化二路153號",
            "telphone": "03-328-2255",
            "hours": " 10:30 - 22:00",
            "figure": "fig/AiCity-910-來碗拉麵-02.jpeg",
            "link": "https://www.facebook.com/pages/category/Food---Beverage-Company/%E4%BE%86%E7%A2%97%E6%8B%89%E9%BA%B5-%E6%9E%97%E5%8F%A3%E5%BA%97-843813859063434/",
            "category": "龜山區-文化路"
        },
        {
            "no": "058",
            "title": "布蕾特義式餐廳",
            "type": "義大利餐廳",
            "address": "桃園市龜山區文化二路191-1號",
            "telphone": "03-397-3673",
            "hours": "11:30 - 14:30, 17:00 - 21:00",
            "figure": "fig/AiCity-910-布蕾特義式餐廳-02.jpg",
            "link": "https://website--589672324944254470136-restaurant.business.site/",
            "category": "龜山區-文化路"
        },
        {
            "no": "059",
            "title": "達美樂 Domino's Pizza",
            "type": "麵食餐館",
            "address": "桃園市龜山區文化二路37號",
            "telphone": "03-397-2252",
            "hours": "11:00 - 22:00",
            "figure": "fig/AiCity-910-達美樂-02.jpeg",
            "link": "https://www.4125252.com.tw/",
            "category": "龜山區-文化路"
        },
        {
            "no": "060",
            "title": "孫東寶台式牛排",
            "type": "火鍋燒烤",
            "address": "桃園市龜山區文化二路41號",
            "telphone": "03-327-0099",
            "hours": "11:00 - 21:00",
            "figure": "fig/AiCity-910-孫東寶台式牛排-02.png",
            "link": "http://www.xn--98som070a.tw/menu.html",
            "category": "龜山區-文化路"
        },
        {
            "no": "061",
            "title": "鍋台銘-時尚湯鍋",
            "type": "火鍋燒烤",
            "address": "桃園市龜山區文化二路91號",
            "telphone": "03-397-3999",
            "hours": "10:00 - 03:00",
            "figure": "fig/AiCity-910-鍋台銘-02.jpeg",
            "link": "https://www.guotaiming-hotpot.com/",
            "category": "龜山區-文化路"
        },
        {
            "no": "062",
            "title": "11番町豚骨拉麵",
            "type": "日本料理",
            "address": "桃園市龜山區文化三路106-1號",
            "telphone": "03-396-1370",
            "hours": "11:00 - 14:00, 17:00 - 20:30",
            "figure": "fig/AiCity-910-11番町豚骨拉麵-02.jpeg",
            "link": "https://www.facebook.com/11fantingming/",
            "category": "龜山區-文化路"
        },
        {
            "no": "063",
            "title": "澎湖灣平價海鮮餐廳",
            "type": "中式料理",
            "address": "桃園市龜山區文化三路140號",
            "telphone": "03-328-4368",
            "hours": "11:00–14:00, 17:00–22:00",
            "figure": "fig/AiCity-910-澎湖灣.jpeg",
            "link": "https://www.facebook.com/%E6%BE%8E%E6%B9%96%E7%81%A3%E5%B9%B3%E5%83%B9%E6%B5%B7%E9%AE%AE%E9%A4%90%E5%BB%B3-108479787548057/",
            "category": "龜山區-文化路"
        },
        {
            "no": "064",
            "title": "港龘港式飲茶",
            "type": "無限自助餐",
            "address": "桃園市龜山區文化三路311號",
            "telphone": "03-318-5155",
            "hours": " 10:30 - 15:00, 16:50 - 21:00",
            "figure": "fig/AiCity-910-港龘港式飲茶-02.png",
            "link": "https://www.facebook.com/ganglonglonglong/",
            "category": "龜山區-文化路"
        },
        {
            "no": "065",
            "title": "拿坡里披薩 林口店",
            "type": "麵食餐館",
            "address": "桃園市龜山區文化三路320號",
            "telphone": "03-328-8559",
            "hours": "11:00 - 21:30",
            "figure": "fig/AiCity-910-拿坡里.png",
            "link": "https://www.0800076666.com.tw/",
            "category": "龜山區-文化路"
        },
        {
            "no": "066",
            "title": "一畝園",
            "type": "麵食餐館",
            "address": "桃園市龜山區文化三路366號",
            "telphone": "03-328-5666",
            "hours": "11:00–14:30, 17:00–21:00 週一公休",
            "figure": "fig/AiCity-910-一畝園.jpg",
            "link": "https://spot.line.me/detail/486247068927531405",
            "category": "龜山區-文化路"
        },
        {
            "no": "067",
            "title": "家芬火鍋",
            "type": "火鍋燒烤",
            "address": "桃園市龜山區文化三路551-17號",
            "telphone": "03-397-3909",
            "hours": "11:30 - 15:00, 16:50 - 22:30",
            "figure": "fig/AiCity-910-家芬火鍋-02.jpeg",
            "link": "#",
            "category": "龜山區-文化路"
        },
        {
            "no": "068",
            "title": "合浦刀切麵食",
            "type": "麵食餐館",
            "address": "桃園市龜山區文化三路560號",
            "telphone": " 03-397-8852",
            "hours": "11:00 - 21:00",
            "figure": "fig/AiCity-910-合浦刀切麵食-02.jpeg",
            "link": "#",
            "category": "龜山區-文化路"
        },
        {
            "no": "069",
            "title": "TINA廚房",
            "type": "中式料理",
            "address": "桃園市龜山區文化三路646號",
            "telphone": "03-318-0607",
            "hours": "08:00 - 21:30",
            "figure": "fig/AiCity-910-TINA廚房-02.jpeg",
            "link": "http://www.organicyam.com.tw/store/store_1.aspx?storeid=28",
            "category": "龜山區-文化路"
        },
        {
            "no": "070",
            "title": "永康豬腳爌肉飯專賣",
            "type": "中式料理",
            "address": "桃園市龜山鄉文化三路551號",
            "telphone": "03-328-8585",
            "hours": "10:30 - 21:00",
            "figure": "fig/AiCity-910-永康豬腳爌肉飯-02.png",
            "link": "https://www.tp5757.com.tw/",
            "category": "龜山區-文化路"
        },
        {
            "no": "071",
            "title": "嚐嚐九九",
            "type": "中式料理",
            "address": "桃園市龜山區文化七路175號",
            "telphone": "03-396-3223",
            "hours": "11:00 - 13:30, 17:00 - 21:00",
            "figure": "fig/AiCity-910-嚐嚐九九-02.jpeg",
            "link": "http://enjoy99.com.tw/",
            "category": "龜山區-文化路"
        },
        {
            "no": "072",
            "title": "STARBUCKS 星巴克-林口門市",
            "type": "點心冰品",
            "address": "桃園市龜山區復興一路202號",
            "telphone": "03-327-7817",
            "hours": "06:30 - 22:00",
            "figure": "fig/AiCity-910-星巴克-02.png",
            "link": "https://www.starbucks.com.tw/home/index.jspx?r=54",
            "category": "龜山區-復興一路"
        },
        {
            "no": "073",
            "title": "CAFÉ 日安,家常",
            "type": "中式料理",
            "address": "桃園市龜山區復興一路212巷31號",
            "telphone": "03-397-9167",
            "hours": "週二～五：10:30 - 15:00 、17:00 - 21:30, 週六日：10:30 - 21:30",
            "figure": "fig/AiCity-910-日安.jpg",
            "link": "https://www.facebook.com/GreatDaysBrunch",
            "category": "龜山區-復興一路"
        },
        {
            "no": "074",
            "title": "I99 Coffee 長庚店",
            "type": "點心冰品",
            "address": "桃園市龜山區復興一路212巷32號-3",
            "telphone": "\r\n03-397-9766",
            "hours": "11:00 - 22:00",
            "figure": "fig/AiCity-910-i99.jpg",
            "link": "https://www.i99.vip/?fbclid=IwAR3gLp8t1yWnoB-sj2w41hI5klrQr36Zv5SCRnYUN3jViFkDSUPPsSKyRbQ",
            "category": "龜山區-復興一路"
        },
        {
            "no": "075",
            "title": "千葉火鍋",
            "type": "火鍋燒烤",
            "address": "桃園市龜山區復興一路267號",
            "telphone": "03-397-1136",
            "hours": "11:00 -23:00",
            "figure": "fig/AiCity-910-千葉火鍋-02.jpeg",
            "link": "http://chien-yen.com.tw/",
            "category": "龜山區-復興一路"
        },
        {
            "no": "076",
            "title": "必勝客Pizza Hut",
            "type": "麵食餐館",
            "address": "桃園市龜山區復興一路290號",
            "telphone": "03-318-1388",
            "hours": "11:00 - 23:00",
            "figure": "fig/AiCity-910-PizzaHut.png",
            "link": "https://www.pizzahut.com.tw/?utm_source=GoogleMyBusiness&utm_medium=organic&utm_campaign=GMB_202007",
            "category": "龜山區-復興一路"
        },
        {
            "no": "077",
            "title": "一番地-壽喜燒",
            "type": "日本料理",
            "address": "桃園市龜山區復興一路368-3號",
            "telphone": "03-328-8869",
            "hours": "11:00 - 22:00",
            "figure": "fig/AiCity-910-一番地-02.png",
            "link": "https://www.sukiyakino1.com.tw/locational_Linkou.html",
            "category": "龜山區-復興一路"
        },
        {
            "no": "078",
            "title": "洋朵義式廚坊",
            "type": "義大利餐廳",
            "address": "桃園市龜山區復興一路8號",
            "telphone": "03-328-1956",
            "hours": "11:00 - 21:50",
            "figure": "fig/AiCity-910-洋朵義式廚坊-02.jpeg",
            "link": "https://www.yentlpasta.com.tw/",
            "category": "龜山區-復興一路"
        },
        {
            "no": "079",
            "title": "林口長庚-美食街",
            "type": "中式料理",
            "address": "桃園市龜山區復興街5號",
            "telphone": "",
            "hours": "11:00 - 21:00",
            "figure": "fig/AiCity-910-林口長庚-美食街-02.jpeg",
            "link": "http://www.chang-gung.com/about.aspx?id=115&bid=9",
            "category": "龜山區-復興一路"
        },
        {
            "no": "080",
            "title": "小木屋鬆餅",
            "type": "點心冰品",
            "address": "桃園市龜山區復興北路25號",
            "telphone": "03-327-0715",
            "hours": "08:00–21:30",
            "figure": "fig/AiCity-910-小木屋.jpg",
            "link": "https://www.facebook.com/linkoushinemood",
            "category": "龜山區-復興北路"
        },
        {
            "no": "081",
            "title": "清原芋圓龜山長庚店",
            "type": "點心冰品",
            "address": "桃園市龜山區復興北路58號",
            "telphone": "03-328-8098",
            "hours": "10:00~18:00, 週六日公休",
            "figure": "fig/AiCity-910-清原.jpg",
            "link": "https://www.q-yuan.com.tw/?fbclid=IwAR2zyY4tKbPUfb30SbPUFrM4qKK8DiYyErWNBqCCNftPfmuQFIuHF1RZYZE",
            "category": "龜山區-復興北路"
        },
        {
            "no": "082",
            "title": "甘蔗の媽媽",
            "type": "點心冰品",
            "address": "桃園市龜山區復興北路6巷15號",
            "telphone": "03-327-4777",
            "hours": "10:00 - 21:30",
            "figure": "fig/AiCity-910-甘蔗.jpg",
            "link": "https://www.facebook.com/%E7%94%98%E8%94%97%E3%81%AE%E5%AA%BD%E5%AA%BD%E6%9E%97%E5%8F%A3%E9%95%B7%E5%BA%9A%E5%BA%97-110600187271444/",
            "category": "龜山區-復興北路"
        },
        {
            "no": "083",
            "title": "三村刈包",
            "type": "點心冰品",
            "address": "桃園市龜山區復興北路6巷21號",
            "telphone": "0965-070-827",
            "hours": "11:30 - 20:30",
            "figure": "fig/AiCity-910-三村刈包.jpg",
            "link": "https://www.facebook.com/3villagesss/",
            "category": "龜山區-復興北路"
        },
        {
            "no": "084",
            "title": "傻師傅湯包",
            "type": "點心冰品",
            "address": "桃園市龜山區復興北路6巷39號",
            "telphone": "0900-058-553",
            "hours": "07:00 - 21:00",
            "figure": "fig/AiCity-910-傻師傅.jpg",
            "link": "https://www.facebook.com/%E5%82%BB%E5%B8%AB%E5%82%85%E6%B9%AF%E5%8C%85-%E9%BE%9C%E5%B1%B1%E5%BE%A9%E8%88%88%E5%BA%97-1640280569628363/",
            "category": "龜山區-復興北路"
        },
        {
            "no": "085",
            "title": "劉家豆花",
            "type": "點心冰品",
            "address": "桃園市龜山區復興北路6巷49號",
            "telphone": "0975-748-797",
            "hours": "11:30 - 22:30",
            "figure": "fig/AiCity-910-劉家豆花.jpg",
            "link": "https://www.facebook.com/pages/%E5%8A%89%E5%AE%B6%E8%B1%86%E8%8A%B1/297313863980228",
            "category": "龜山區-復興北路"
        },
        {
            "no": "086",
            "title": "阿琪師湯包",
            "type": "點心冰品",
            "address": "桃園市龜山區復興北路6巷號",
            "telphone": "0975-49-879",
            "hours": "11:00 - 22:00 週日公休",
            "figure": "fig/AiCity-910-阿琪師.jpg",
            "category": "龜山區-復興北路"
        },
        {
            "no": "087",
            "title": "貴族世家",
            "type": "火鍋燒烤",
            "address": "桃園市龜山區復興北路75號",
            "telphone": "03-318-0800",
            "hours": "11:00 - 22:00",
            "figure": "fig/AiCity-910-貴族世家-02.jpeg",
            "link": "http://www.noble.com.tw/index.php/menu/other-charges",
            "category": "龜山區-復興北路"
        },
        {
            "no": "088",
            "title": "鍋賣局百元小火鍋-林口長庚店",
            "type": "火鍋燒烤",
            "address": "桃園市龜山區復興北路75號1樓",
            "telphone": "03-328-0818",
            "hours": "11:00 - 23:00",
            "figure": "fig/AiCity-910-鍋賣局.jpg",
            "link": "https://www.facebook.com/ANGELHOTPOTchanggeng/",
            "category": "龜山區-復興北路"
        }
    ]