[
        {
            "no": "001",
            "title": "千葉火鍋",
            "address": "333桃園市龜山區復興一路267號",
            "telphone": "03-397-1136",
            "hours": "11:00 -23:00",
            "figure": "fig/AiCity-910-千葉火鍋-02.jpeg",
            "link": "http://chien-yen.com.tw/",
            "category": "龜山區-復興一路"
        },
        {
            "no": "002",
            "title": "一番地-壽喜燒",
            "address": "333桃園市龜山區復興一路368-3號",
            "telphone": "03-328-8869",
            "hours": "11:00 - 22:00",
            "figure": "fig/AiCity-910-一番地-02.png",
            "link": "https://www.sukiyakino1.com.tw/locational_Linkou.html",
            "category": "龜山區-復興一路"
        },
        {
            "no": "003",
            "title": "鍋台銘-時尚湯鍋",
            "address": "333桃園市龜山區文化二路91號",
            "telphone": "03-397-3999",
            "hours": "10:00 - 03:00",
            "figure": "fig/AiCity-910-鍋台銘-02.jpeg",
            "link": "https://www.guotaiming-hotpot.com/",
            "category": "龜山區-華亞園區"
        },
        {
            "no": "004",
            "title": "家芬火鍋",
            "address": "333桃園市龜山區文化三路551-17號",
            "telphone": "03-397-3909",
            "hours": "11:30 - 15:00, 16:50 - 22:30",
            "figure": "fig/AiCity-910-家芬火鍋-02.jpeg",
            "link": "#",
            "category": "龜山區-華亞園區"
        },
        {
            "no": "005",
            "title": "六扇門-時尚湯鍋",
            "address": "333桃園市龜山區文化一路36號",
            "telphone": "03-318-6666",
            "hours": "11:30 - 23:00",
            "figure": "fig/AiCity-910-六扇門-02.jpeg",
            "link": "https://hot-pot-restaurant-2357.business.site/",
            "category": "龜山區-復興一路"
        },
        {
            "no": "006",
            "title": "港龘港式飲茶",
            "address": "333桃園市龜山區文化三路311號",
            "telphone": "03-318-5155",
            "hours": " 10:30 - 15:00, 16:50 - 21:00",
            "figure": "fig/AiCity-910-港龘港式飲茶-02.png",
            "link": "https://www.facebook.com/ganglonglonglong/",
            "category": "龜山區-復興一路"
        },
        {
            "no": "007",
            "title": "貴族世家",
            "address": "333桃園市龜山區復興北路75號",
            "telphone": "03-318-0800",
            "hours": "11:00 - 22:00",
            "figure": "fig/AiCity-910-貴族世家-02.jpeg",
            "link": "http://www.noble.com.tw/index.php/menu/other-charges",
            "category": "龜山區-復興一路"
        },
        {
            "no": "008",
            "title": "厚切牛排",
            "address": "333桃園市龜山區文化一路26號",
            "telphone": "03-397-8729",
            "hours": "11:00 - 22:00",
            "figure": "fig/AiCity-910-厚切牛排-02.jpeg",
            "link": "http://www.thicklycut.com.tw/%E5%88%86%E5%BA%97%E4%BB%8B%E7%B4%B9/store9.html",
            "category": "龜山區-復興一路"
        },
        {
            "no": "009",
            "title": "孫東寶台式牛排",
            "address": "333桃園市龜山區文化二路41號",
            "telphone": "03-327-0099",
            "hours": "11:00 - 21:00",
            "figure": "fig/AiCity-910-孫東寶台式牛排-02.png",
            "link": "http://www.xn--98som070a.tw/menu.html",
            "category": "龜山區-華亞園區"
        },
        {
            "no": "010",
            "title": "洋朵義式廚坊",
            "address": "333桃園市龜山區復興一路8號",
            "telphone": "03-328-1956",
            "hours": "11:00 - 21:50",
            "figure": "fig/AiCity-910-洋朵義式廚坊-02.jpeg",
            "link": "https://www.yentlpasta.com.tw/",
            "category": "龜山區-復興一路"
        },
        {
            "no": "011",
            "title": "布蕾特義式餐廳",
            "address": "333桃園市龜山區文化二路191-1號",
            "telphone": "03-397-3673",
            "hours": "11:30 - 14:30, 17:00 - 21:00",
            "figure": "fig/AiCity-910-布蕾特義式餐廳-02.jpg",
            "link": "https://website--589672324944254470136-restaurant.business.site/",
            "category": "龜山區-華亞園區"
        },
        {
            "no": "012",
            "title": "達美樂 Domino's Pizza",
            "address": "333桃園市龜山區文化二路37號",
            "telphone": "03-397-2252",
            "hours": "11:00 - 22:00",
            "figure": "fig/AiCity-910-達美樂-02.jpeg",
            "link": "https://www.4125252.com.tw/",
            "category": "龜山區-復興一路"
        },
        {
            "no": "013",
            "title": "來碗拉麵",
            "address": "333桃園市龜山區文化二路153號",
            "telphone": "03-328-2255",
            "hours": " 10:30 - 22:00",
            "figure": "fig/AiCity-910-來碗拉麵-02.jpeg",
            "link": "https://www.facebook.com/pages/category/Food---Beverage-Company/%E4%BE%86%E7%A2%97%E6%8B%89%E9%BA%B5-%E6%9E%97%E5%8F%A3%E5%BA%97-843813859063434/",
            "category": "龜山區-華亞園區"
        },
        {
            "no": "014",
            "title": "11番町豚骨拉麵",
            "address": "333桃園市龜山區文化三路106-1號",
            "telphone": "03-396-1370",
            "hours": "11:00 - 14:00, 17:00 - 20:30",
            "figure": "fig/AiCity-910-11番町豚骨拉麵-02.jpeg",
            "link": "https://www.facebook.com/11fantingming/",
            "category": "龜山區-復興一路"
        },
        {
            "no": "015",
            "title": "合浦刀切麵食",
            "address": "333桃園市龜山區文化三路560號",
            "telphone": " 03-397-8852",
            "hours": "11:00 - 21:00",
            "figure": "fig/AiCity-910-合浦刀切麵食-02.jpeg",
            "link": "#",
            "category": "龜山區"
        },
        {
            "no": "016",
            "title": "永康豬腳爌肉飯專賣",
            "address": "333桃園市龜山鄉文化三路551號",
            "telphone": "03-328-8585",
            "hours": "10:30 - 21:00",
            "figure": "fig/AiCity-910-永康豬腳爌肉飯-02.png",
            "link": "https://www.tp5757.com.tw/",
            "category": "龜山區-華亞園區"
        },
        {
            "no": "017",
            "title": "TINA廚房",
            "address": "333桃園市龜山區文化三路646號",
            "telphone": "03-318-0607",
            "hours": "08:00 - 21:30",
            "figure": "fig/AiCity-910-TINA廚房-02.jpeg",
            "link": "http://www.organicyam.com.tw/store/store_1.aspx?storeid=28",
            "category": "龜山區-華亞園區"
        },
        {
            "no": "018",
            "title": "嚐嚐九九",
            "address": "333桃園市龜山區文化七路175號",
            "telphone": "03-396-3223",
            "hours": "11:00 - 13:30, 17:00 - 21:00",
            "figure": "fig/AiCity-910-嚐嚐九九-02.jpeg",
            "link": "http://enjoy99.com.tw/",
            "category": "龜山區-華亞園區"
        },
        {
            "no": "019",
            "title": "STARBUCKS 星巴克-林口門市",
            "address": "330桃園市龜山區復興一路202號",
            "telphone": "03-327-7817",
            "hours": "06:30 - 22:00",
            "figure": "fig/AiCity-910-星巴克-02.png",
            "link": "https://www.starbucks.com.tw/home/index.jspx?r=54",
            "category": "龜山區-復興一路"
        },
        {
            "no": "020",
            "title": "林口長庚-美食街",
            "address": "333桃園市龜山區復興街5號",
            "telphone": "",
            "hours": "11:00 - 21:00",
            "figure": "fig/AiCity-910-林口長庚-美食街-02.jpeg",
            "link": "http://www.chang-gung.com/about.aspx?id=115&bid=9",
            "category": "龜山區-復興一路"
        },
        {
            "no": "021",
            "title": "瓦城泰國料理-A8店",
            "address": "2F 饗悠活 22018",
            "telphone": "03-318-6598",
            "hours": "11:00 - 21:00",
            "figure": "fig/AiCity-910-瓦城泰國料理-02.png",
            "link": "https://www.thaitown.com.tw/",
            "category": "A8-GlobalMall"
        },
        {
            "no": "022",
            "title": "朱記 餡餅粥",
            "address": "2F 饗悠活 22012",
            "telphone": "03-318-1109",
            "hours": "11:00 - 22:00",
            "figure": "fig/AiCity-910-朱記-02.png",
            "link": "https://www.zhuji.com.tw/#2",
            "category": "A8-GlobalMall"
        },
        {
            "no": "023",
            "title": "洋朵義式廚坊",
            "address": "2F 饗悠活 22003",
            "telphone": "03-328-1956",
            "hours": "11:00 - 21:50",
            "figure": "fig/AiCity-910-洋朵義式廚坊-02.jpeg",
            "link": "https://www.yentlpasta.com.tw/",
            "category": "A8-GlobalMall"
        },
        {
            "no": "025",
            "title": "勝博殿-日式炸豬排",
            "address": "2F 饗悠活 22002",
            "telphone": "03-263-0613",
            "hours": "11:00 - 22:00",
            "figure": "fig/AiCity-910-勝博殿-02.jpg",
            "link": "http://www.saboten.com.tw/",
            "category": "A8-GlobalMall"
        },
        {
            "no": "026",
            "title": "瓦城泰國料理-三井店",
            "address": "新北市林口區文化三路一段356號2樓",
            "telphone": "02-2606-9166",
            "hours": "11:00 - 15:00, 17:00 - 21:30",
            "figure": "fig/AiCity-910-瓦城泰國料理-02.png",
            "link": "https://www.thaitown.com.tw/",
            "category": "林口區"
        },
        {
            "no": "027",
            "title": "欣葉小聚-三井店",
            "address": "新北市林口區文化三路一段356號2樓",
            "telphone": "02-2608-4988",
            "hours": "11:00 - 15:00, 17:00 - 21:30",
            "figure": "fig/AiCity-910-欣葉小聚-02.png",
            "link": "https://www.shinyeh.com.tw/content/zh/brand/Index.aspx?BrandId=3",
            "category": "林口區"
        },
        {
            "no": "028",
            "title": "點水樓-三井店",
            "address": "新北市林口區文化三路一段356號2樓",
            "telphone": "02-2608-6969",
            "hours": "11:00 - 22:00",
            "figure": "fig/AiCity-910-點水樓-02.jpeg",
            "link": "http://www.dianshuilou.com.tw/Intro_7_a.html",
            "category": "林口區"
        },
        {
            "no": "029",
            "title": "築地樂樂町",
            "address": "244新北市林口區文化三路二段67號",
            "telphone": "02-2608-9487",
            "hours": "11:00 - 14:00, 17:30 - 21:00",
            "figure": "fig/AiCity-910-築地樂樂町-02.jpeg",
            "link": "https://www.facebook.com/LakuLakuMachi/",
            "category": "林口區"
        },
        {
            "no": "030",
            "title": "村民食堂",
            "address": "330桃園市桃園區中正路1078號",
            "telphone": "03-316-3838",
            "hours": "11:00 - 21:00",
            "figure": "fig/AiCity-910-村民食堂-02.jpeg",
            "link": "http://villager.com.tw/",
            "category": "桃園區"
        },
        {
            "no": "031",
            "title": "河馬水產",
            "address": "320桃園市中壢區高鐵北路二段2號",
            "telphone": "03-287-3600",
            "hours": "11:00&nbsp; - 21:30",
            "figure": "fig/AiCity-910-河馬水產-02.jpeg",
            "link": "https://www.facebook.com/homaseafood",
            "category": "桃園區"
        },
        {
            "no": "032",
            "title": "阿基師藝文茶樓-桃園福容飯店",
            "address": "330桃園市桃園區大興西路一段200號",
            "telphone": "03-326-5800",
            "hours": "06:30 - 10:00, 11:30 - 14:00, 17:30 - 21:00",
            "figure": "fig/AiCity-910-阿基師藝文茶樓-02.jpeg",
            "link": "https://www.fullon-hotels.com.tw/ty/",
            "category": "A8-GlobalMall"
        },
        {
            "no": "033",
            "title": "圓明園-花園海鮮會館",
            "address": "242新北市新莊區中原路399號",
            "telphone": "02-8992-5566",
            "hours": "11:30 - 14:00, 17:30 - 21:00",
            "figure": "fig/AiCity-910-圓明園-02.jpeg",
            "link": "https://www.facebook.com/%E5%9C%93%E6%98%8E%E5%9C%92%E8%8A%B1%E5%9C%92%E6%B5%B7%E9%AE%AE%E6%9C%83%E9%A4%A8%E5%8E%9F%E5%96%9C%E5%B8%82%E5%A4%9A%E9%A4%90%E5%BB%B3-106254614063995/",
            "category": "新莊區"
        },
        {
            "no": "034",
            "title": "華漾點心",
            "address": "桃園市龜山區復興一路8號2樓",
            "telphone": "03-328-8718",
            "hours": "週一至週五: 11:00-14:30(最後點餐14:00), 17:30-21:30(最後點餐21:00)\r\n週六及週日: 11:00-15:30(最後點餐15:00), 17:30-21:30(最後點餐21:00)",
            "figure": "fig/AiCity-910-華漾.jpeg",
            "link": "https://www.hwayoung.com/tw/stores.php",
            "category": "A8-GlobalMall"
        },
        {
            "no": "035",
            "title": "Japoli -三井店",
            "address": "新北市林口區文化三路一段356號戶外區2F",
            "telphone": "02-2600-9845",
            "hours": "週一至週四 11:00~21:30 週五 11:00~22:00 週六至週日 10:30~22:00",
            "figure": "fig/AiCity-910-Japoli.png",
            "link": "https://www.facebook.com/japoli2.kingsknow/menu/?p_ref=pa",
            "category": "林口區"
        },
        {
            "no": "036",
            "title": "屯京拉麵-三井店",
            "address": "新北市林口區文化三路一段356號2F",
            "telphone": "02-2608-7070",
            "hours": "週日至週四11:00~21:30 週五至週六11:00~22:00",
            "figure": "fig/AiCity-910-屯京拉麵.jpeg",
            "link": "https://foodexgroup.com/",
            "category": "林口區"
        },
        {
            "no": "037",
            "title": "牛 かつもと村-三井店",
            "address": "新北市林口區文化三路一段356號",
            "telphone": "02-2600-0167",
            "hours": "週一至週五11:00~21:30 週六至週日10:30~22:00",
            "figure": "fig/AiCity-910-日本牛排.png",
            "link": "https://www.gyukatsu-motomura.com/zh/",
            "category": "林口區"
        },
        {
            "no": "038",
            "title": "くら寿司-三井店",
            "address": "新北市林口區文化三路一段356號B1",
            "hours": "週一至週五11:00~21:30 週六至週日 10:30~21:30",
            "figure": "fig/AiCity-910-寿司.png",
            "link": "https://kurasushi.tw/shops",
            "category": "林口區"
        },
        {
            "no": "039",
            "title": "法國的秘密甜點-三井店",
            "address": "新北市林口區文化三路一段356號B1",
            "telphone": "02-2609-6399",
            "hours": "週一至週日11:00~21:00",
            "figure": "fig/AiCity-910-法國秘密甜點.jpeg",
            "link": "https://shop.thesecretcake.com.tw/",
            "category": "林口區"
        },
        {
            "no": "040",
            "title": "金子半之助-三井店",
            "address": "新北市林口區文化三路一段356號2F",
            "telphone": "02-2606-9138",
            "hours": "週一至週五11:00~21:30 週六至週日10:30~22:00",
            "figure": "fig/AiCity-910-金子半之助.png",
            "link": "https://www.tendon.kingoshou.com/",
            "category": "林口區"
        },
        {
            "no": "041",
            "title": "PAUL 保羅麵包法式烘焙Café-三井店",
            "address": "新北市林口區文化三路一段356號2F",
            "telphone": "02-2600-3323",
            "hours": "週日至週五11:00~21:00 週六10:30~22:00",
            "figure": "fig/AiCity-910-Paul.png",
            "link": "https://www.facebook.com/paul1889.taiwan/",
            "category": "林口區"
        },
        {
            "no": "042",
            "title": "鶴橋風月-三井店",
            "address": "新北市林口區文化三路一段356號1F",
            "telphone": "02-2600-6048",
            "hours": "週一至週日11:00~21:00",
            "figure": "fig/AiCity-910-鶴橋風月.jpg",
            "link": "https://www.facebook.com/TsuruhashiFugetsuTaiwan/",
            "category": "林口區"
        },
        {
            "no": "043",
            "title": "J.S. Foodies Tokyo-三井店",
            "address": "新北市林口區文化三路一段356號2F",
            "telphone": "02-2608-0922",
            "hours": "週日至週五11:00~21:00 週六10:30~22:00",
            "figure": "fig/AiCity-910-JSFood.png",
            "link": "https://www.facebook.com/jsfoodiestw/",
            "category": "林口區"
        },
        {
            "no": "044",
            "title": "Kua `Aina 夏威夷漢堡-三井店",
            "address": "新北市林口區文化三路一段356號2F",
            "telphone": "02-2606-8663",
            "hours": "週一至週五11:00~21:30 週六至週日10:30~22:00",
            "figure": "fig/AiCity-910-Kuaaina.jpeg",
            "link": "http://www.kua-aina.tw/",
            "category": "林口區"
        }
    ]